{"type":"FeatureCollection","totalFeatures":13,"features":[{"type":"Feature","id":"gp_streetoffice_xiaogan.57121","geometry":{"type":"Point","coordinates":[113.66586621,31.07965496]},"geometry_name":"location","properties":{"area_id":57121,"area_level":4,"city_id":1926,"name":"胡金店镇","parent_area":1931}},{"type":"Feature","id":"gp_streetoffice_xiaogan.55946","geometry":{"type":"Point","coordinates":[113.81710971,30.82298784]},"geometry_name":"location","properties":{"area_id":55946,"area_level":4,"city_id":1926,"name":"下辛店镇","parent_area":1931}},{"type":"Feature","id":"gp_streetoffice_xiaogan.46204","geometry":{"type":"Point","coordinates":[113.67398321,31.0161021]},"geometry_name":"location","properties":{"area_id":46204,"area_level":4,"city_id":1926,"name":"清明河乡","parent_area":1931}},{"type":"Feature","id":"gp_streetoffice_xiaogan.54674","geometry":{"type":"Point","coordinates":[113.78302971,31.11412636]},"geometry_name":"location","properties":{"area_id":54674,"area_level":4,"city_id":1926,"name":"曾店镇","parent_area":1931}},{"type":"Feature","id":"gp_streetoffice_xiaogan.45017","geometry":{"type":"Point","coordinates":[113.76705771,30.84910506]},"geometry_name":"location","properties":{"area_id":45017,"area_level":4,"city_id":1926,"name":"道桥镇","parent_area":1931}},{"type":"Feature","id":"gp_streetoffice_xiaogan.46202","geometry":{"type":"Point","coordinates":[113.71080821,31.10044134]},"geometry_name":"location","properties":{"area_id":46202,"area_level":4,"city_id":1926,"name":"义堂镇","parent_area":1931}},{"type":"Feature","id":"gp_streetoffice_xiaogan.21851","geometry":{"type":"Point","coordinates":[113.80935271,30.97353695]},"geometry_name":"location","properties":{"area_id":21851,"area_level":4,"city_id":1926,"name":"伍洛镇","parent_area":1931}},{"type":"Feature","id":"gp_streetoffice_xiaogan.55945","geometry":{"type":"Point","coordinates":[113.73482071,31.02070377]},"geometry_name":"location","properties":{"area_id":55945,"area_level":4,"city_id":1926,"name":"城关镇","parent_area":1931}},{"type":"Feature","id":"gp_streetoffice_xiaogan.49804","geometry":{"type":"Point","coordinates":[113.78210121,31.04286876]},"geometry_name":"location","properties":{"area_id":49804,"area_level":4,"city_id":1926,"name":"吴铺镇","parent_area":1931}},{"type":"Feature","id":"gp_streetoffice_xiaogan.26665","geometry":{"type":"Point","coordinates":[113.74532821,30.9531463]},"geometry_name":"location","properties":{"area_id":26665,"area_level":4,"city_id":1926,"name":"隔蒲潭镇","parent_area":1931}},{"type":"Feature","id":"gp_streetoffice_xiaogan.25444","geometry":{"type":"Point","coordinates":[113.75251121,31.16521075]},"geometry_name":"location","properties":{"area_id":25444,"area_level":4,"city_id":1926,"name":"倒店乡","parent_area":1931}},{"type":"Feature","id":"gp_streetoffice_xiaogan.30328","geometry":{"type":"Point","coordinates":[113.76465771,31.00909092]},"geometry_name":"location","properties":{"area_id":30328,"area_level":4,"city_id":1926,"name":"县经济开发区","parent_area":1931}},{"type":"Feature","id":"gp_streetoffice_xiaogan.23051","geometry":{"type":"Point","coordinates":[113.81795671,30.92168701]},"geometry_name":"location","properties":{"area_id":23051,"area_level":4,"city_id":1926,"name":"沙河乡","parent_area":1931}}],"crs":{"type":"name","properties":{"name":"urn:ogc:def:crs:EPSG::4326"}}}